{"SHL_IDF_CD":"f6d6ce20-206b-412c-998e-12f56966d746","schoolName":"미로중학교","sidoCode":"11","sidoName":"강원","sdSchulCode":"7872040","kind":"중학교","address":"강원특별자치도 삼척시 미로면 강원남부로 3907","sigungu":"삼척시","lat":37.4112193917,"lng":129.1044398899}
{"SHL_IDF_CD":"ce28195e-93ac-4ed6-8fe8-e9876f30f600","schoolName":"평원중학교","sidoCode":"11","sidoName":"강원","sdSchulCode":"7822146","kind":"중학교","address":"강원도 원주시 무실로 222","sigungu":"원주시","lat":37.3384496299,"lng":127.9359810176}
{"SHL_IDF_CD":"6d3fd678-1da3-4f7a-a492-442d7b0ebf84","schoolName":"중동중학교","sidoCode":"01","sidoName":"서울","sdSchulCode":"7091455","kind":"중학교","address":"서울특별시 강남구 일원로8길 37","sigungu":"강남구","lat":37.4887245952,"lng":127.0785628508}
{"SHL_IDF_CD":"16eebf60-3c71-415a-bd10-1a1ad55b0094","schoolName":"성복중학교","sidoCode":"10","sidoName":"경기","sdSchulCode":"7751031","kind":"중학교","address":"경기도 용인시 수지구 성복2로78번길 51","sigungu":"용인시 수지구","lat":37.3198350719,"lng":127.0764733042}
{"SHL_IDF_CD":"69b7b81d-e7eb-4851-89cf-944f08e79bd1","schoolName":"청심국제중학교","sidoCode":"10","sidoName":"경기","sdSchulCode":"7721038","kind":"중학교","address":"경기도 가평군 설악면 미사리로 324-213","sigungu":"가평군","lat":37.6864843796,"lng":127.5403523974}
